City_ID,City,Lat,Lng,Max Temp,Humidity,Cloudiness,Wind Speed,Country,Date
0,bucak,37.4592,30.595,5.29,89,91,1.1,TR,2023-04-01 23:19:35
1,merauke,-8.4667,140.3333,27.57,78,20,3.7,ID,2023-04-01 23:19:36
2,caravelas,-17.7125,-39.2481,26.04,77,1,4.03,BR,2023-04-01 23:19:37
3,albany,42.6001,-73.9662,14.09,74,15,3.63,US,2023-04-01 23:19:20
4,beringovskiy,63.05,179.3167,-8.06,67,55,8.81,RU,2023-04-01 23:19:38
5,punta arenas,-53.15,-70.9167,9.06,66,75,7.72,CL,2023-04-01 23:19:38
6,ushuaia,-54.8,-68.3,7.81,71,40,7.72,AR,2023-04-01 23:19:39
7,gobabis,-22.45,18.9667,21.64,22,50,3.08,NA,2023-04-01 23:19:40
8,fortuna,40.5982,-124.1573,10.55,78,100,1.79,US,2023-04-01 23:19:40
9,castro,-24.7911,-50.0119,19.6,81,61,1.37,BR,2023-04-01 23:19:41
10,hermanus,-34.4187,19.2345,17.11,88,1,3.92,ZA,2023-04-01 23:19:42
11,vaini,-21.2,-175.2,30.09,74,40,5.66,TO,2023-04-01 23:19:42
12,mataura,-46.1927,168.8643,13.04,98,100,1.84,NZ,2023-04-01 23:19:43
13,umbuzeiro,-7.6956,-35.6636,21.79,83,100,2.52,BR,2023-04-01 23:19:44
14,hobart,-42.8794,147.3294,15.14,72,75,4.63,AU,2023-04-01 23:19:44
15,kapaa,22.0752,-159.319,23.18,86,100,3.6,US,2023-04-01 23:19:45
16,peto,20.1333,-88.9167,34.78,28,23,3.51,MX,2023-04-01 23:19:45
17,erenhot,43.6475,111.9767,13.01,55,100,9.58,CN,2023-04-01 23:19:46
18,jamestown,42.097,-79.2353,3.07,93,100,9.77,US,2023-04-01 23:19:10
19,antalaha,-14.9003,50.2788,23.65,88,60,2.0,MG,2023-04-01 23:19:47
20,vondrozo,-22.8167,47.2833,19.13,99,100,1.9,MG,2023-04-01 23:19:47
21,sao felix do xingu,-6.6447,-51.995,23.29,95,77,0.72,BR,2023-04-01 23:19:48
22,cape town,-33.9258,18.4232,19.1,79,0,5.14,ZA,2023-04-01 23:16:33
23,rikitea,-23.1203,-134.9692,26.96,80,27,7.25,PF,2023-04-01 23:19:49
24,torbay,47.6666,-52.7314,1.88,67,75,8.75,CA,2023-04-01 23:19:49
25,iqaluit,63.7506,-68.5145,-16.15,77,20,1.03,CA,2023-04-01 23:19:50
26,kodiak,57.79,-152.4072,4.73,36,0,9.26,US,2023-04-01 23:15:23
27,busselton,-33.65,115.3333,14.05,91,2,3.49,AU,2023-04-01 23:19:52
28,bongandanga,1.5,21.05,21.75,77,47,1.41,CD,2023-04-01 23:19:52
29,banda aceh,5.5577,95.3222,25.92,80,76,3.08,ID,2023-04-01 23:19:53
30,tasiilaq,65.6145,-37.6368,-1.91,85,100,1.07,GL,2023-04-01 23:19:53
31,aktash,50.3,87.7333,-25.31,99,66,0.26,RU,2023-04-01 23:19:54
32,san lawrenz,36.0553,14.204,16.59,74,97,1.79,MT,2023-04-01 23:19:55
33,barrow,71.2906,-156.7887,-16.99,85,100,4.12,US,2023-04-01 23:16:06
34,buala,-8.145,159.5921,29.1,67,95,0.43,SB,2023-04-01 23:19:56
35,bredasdorp,-34.5322,20.0403,15.91,95,0,1.97,ZA,2023-04-01 23:19:57
36,jieshi,22.8134,115.8257,20.45,88,98,5.12,CN,2023-04-01 23:19:57
37,hualmay,-11.0964,-77.6139,24.89,81,100,3.64,PE,2023-04-01 23:19:58
38,new norfolk,-42.7826,147.0587,14.95,73,100,0.45,AU,2023-04-01 23:19:59
39,vila velha,-20.3297,-40.2925,28.3,84,40,1.03,BR,2023-04-01 23:20:00
40,maceio,-9.6658,-35.7353,24.69,94,0,2.06,BR,2023-04-01 23:08:14
41,fairbanks,64.8378,-147.7164,-1.33,51,40,5.14,US,2023-04-01 23:15:03
42,faya,18.3851,42.4509,14.29,85,73,2.83,SA,2023-04-01 23:20:02
43,ordzhonikidze,52.4411,61.7408,-0.63,76,6,3.14,KZ,2023-04-01 23:20:04
44,sioux lookout,50.1001,-91.917,1.04,32,75,3.09,CA,2023-04-01 23:20:04
45,balkanabat,39.5108,54.3671,7.87,74,99,5.38,TM,2023-04-01 23:15:29
46,hambantota,6.1241,81.1185,25.15,85,41,1.25,LK,2023-04-01 23:20:06
47,magway,20.15,94.9167,24.83,70,23,2.12,MM,2023-04-01 23:20:06
48,victor harbor,-35.5667,138.6167,11.49,62,24,3.82,AU,2023-04-01 23:20:07
49,khudumelapye,-23.8833,24.75,21.77,48,51,3.81,BW,2023-04-01 23:20:07
50,lagoa,39.05,-27.9833,15.83,92,84,11.47,PT,2023-04-01 23:20:08
51,waipawa,-41.4122,175.5153,19.12,62,33,7.04,NZ,2023-04-01 23:20:08
52,severo-kurilsk,50.6789,156.125,0.1,90,58,7.8,RU,2023-04-01 23:20:09
53,qaanaaq,77.484,-69.3632,-24.94,68,5,2.64,GL,2023-04-01 23:20:10
54,turukhansk,65.8167,87.9833,-6.79,94,100,11.09,RU,2023-04-01 23:20:10
55,camapua,-19.5314,-54.0439,23.3,78,10,2.11,BR,2023-04-01 23:20:11
56,los llanos de aridane,28.6585,-17.9182,16.86,82,0,5.14,ES,2023-04-01 23:20:12
57,ryotsu,38.0833,138.4333,9.18,67,0,6.14,JP,2023-04-01 23:20:13
58,kahului,20.8947,-156.47,31.01,40,40,8.23,US,2023-04-01 23:15:24
59,georgetown,5.4112,100.3354,27.96,91,20,1.54,MY,2023-04-01 23:17:33
60,karratha,-20.7377,116.8463,26.86,75,71,2.37,AU,2023-04-01 23:20:14
61,longyearbyen,78.2186,15.6401,-12.09,72,75,3.6,SJ,2023-04-01 23:20:15
62,hilo,19.7297,-155.09,29.6,74,40,4.12,US,2023-04-01 23:20:15
63,elbistan,38.2059,37.1983,4.74,77,71,1.19,TR,2023-04-01 23:20:16
64,mandalgovi,45.7625,106.2708,-11.99,81,97,11.1,MN,2023-04-01 23:20:17
65,victoria,22.2855,114.1577,22.19,92,99,4.47,HK,2023-04-01 23:18:06
66,atuona,-9.8,-139.0333,27.09,75,21,6.77,PF,2023-04-01 23:20:18
67,aksu,41.1231,80.2644,7.99,14,0,1.99,CN,2023-04-01 23:20:19
68,narsaq,60.9167,-46.05,-1.88,77,57,3.9,GL,2023-04-01 23:20:19
69,el dorado,38.7666,-120.5177,13.84,54,73,2.68,US,2023-04-01 23:20:20
70,tortoli,39.9256,9.6572,13.9,44,20,3.09,IT,2023-04-01 23:20:21
71,kosh-agach,50.0,88.6667,-23.94,84,68,2.44,RU,2023-04-01 23:20:21
72,paamiut,61.994,-49.6678,-3.55,68,100,5.09,GL,2023-04-01 23:20:22
73,coahuayana,18.7333,-103.6833,29.55,41,86,2.86,MX,2023-04-01 23:20:22
74,jalu,29.0331,21.5482,19.4,19,0,4.25,LY,2023-04-01 23:20:23
75,katsuura,35.1333,140.3,14.84,68,100,6.51,JP,2023-04-01 23:20:23
76,roald,62.5833,6.1333,3.2,74,42,2.57,NO,2023-04-01 23:20:24
77,baker city,44.7749,-117.8344,5.33,66,40,1.54,US,2023-04-01 23:19:37
78,sitka,57.0531,-135.33,3.94,81,75,4.63,US,2023-04-01 23:20:26
79,jumla,29.2747,82.1838,1.72,90,58,1.76,NP,2023-04-01 23:20:26
80,belaya gora,68.5333,146.4167,-22.73,86,81,1.28,RU,2023-04-01 23:20:27
81,carnarvon,-24.8667,113.6333,23.64,78,56,5.44,AU,2023-04-01 23:20:28
82,pisco,-13.7,-76.2167,25.03,78,0,9.26,PE,2023-04-01 23:20:28
83,tuatapere,-46.1333,167.6833,10.91,79,100,4.85,NZ,2023-04-01 23:20:29
84,ancud,-41.8697,-73.8203,12.09,85,77,2.56,CL,2023-04-01 23:16:30
85,udimskiy,61.1417,45.9144,-1.12,96,99,0.65,RU,2023-04-01 23:20:30
86,mmathubudukwane,-24.6,26.4333,21.73,52,45,3.07,BW,2023-04-01 23:20:31
87,kakonko,-3.2828,30.9642,15.6,96,56,0.88,TZ,2023-04-01 23:20:31
88,butaritari,3.0707,172.7902,27.5,76,100,5.77,KI,2023-04-01 23:20:32
89,baiyin,36.5583,104.2081,1.8,79,100,5.38,CN,2023-04-01 23:20:32
90,yellowknife,62.456,-114.3525,-11.71,72,100,6.69,CA,2023-04-01 23:20:00
91,mar del plata,-38.0023,-57.5575,17.27,77,0,3.6,AR,2023-04-01 23:19:34
92,half moon bay,37.4636,-122.4286,19.12,57,0,7.2,US,2023-04-01 23:19:37
93,thompson,55.7435,-97.8558,-6.91,35,75,5.14,CA,2023-04-01 23:20:35
94,nikolskoye,59.7035,30.7861,-1.06,96,94,2.28,RU,2023-04-01 23:20:36
95,port elizabeth,-33.918,25.5701,18.51,96,1,0.89,ZA,2023-04-01 23:20:36
96,sulangan,11.1373,123.7228,27.1,78,100,4.09,PH,2023-04-01 23:20:37
97,dharchula,29.85,80.5333,11.34,74,84,1.98,IN,2023-04-01 23:20:38
98,bluff,-46.6,168.3333,13.22,67,100,6.97,NZ,2023-04-01 23:20:38
99,zheleznodorozhnyy,55.7503,38.0042,6.31,98,100,3.17,RU,2023-04-01 23:20:39
100,sudbury,46.49,-80.99,-2.19,54,93,4.47,CA,2023-04-01 23:17:20
101,grindavik,63.8424,-22.4338,4.26,70,75,13.38,IS,2023-04-01 23:20:40
102,kloulklubed,7.0419,134.2556,27.28,72,75,0.85,PW,2023-04-01 23:20:40
103,rosarito,32.3333,-117.0333,20.69,64,0,4.31,MX,2023-04-01 23:20:41
104,airai,-8.9266,125.4092,17.09,91,100,0.87,TL,2023-04-01 23:20:42
105,viedma,-40.8135,-62.9967,19.53,28,83,4.32,AR,2023-04-01 23:20:42
106,el zulia,7.9325,-72.6012,23.73,100,75,0.0,CO,2023-04-01 23:20:43
107,tuktoyaktuk,69.4541,-133.0374,-20.0,71,0,4.63,CA,2023-04-01 23:20:43
108,alihe,50.5667,123.7167,6.99,85,82,1.65,CN,2023-04-01 23:20:44
109,kruisfontein,-34.0033,24.7314,14.7,76,0,1.92,ZA,2023-04-01 23:20:44
110,bathsheba,13.2167,-59.5167,26.34,73,40,9.77,BB,2023-04-01 23:20:45
111,chokurdakh,70.6333,147.9167,-28.25,98,99,3.46,RU,2023-04-01 23:20:46
112,east london,-33.0153,27.9116,20.2,85,50,4.47,ZA,2023-04-01 23:20:47
113,hasaki,35.7333,140.8333,15.22,58,61,6.41,JP,2023-04-01 23:20:47
114,grants,35.1473,-107.8514,19.13,3,0,6.17,US,2023-04-01 23:20:48
115,kudahuvadhoo,2.6708,72.8944,27.52,73,49,1.99,MV,2023-04-01 23:20:49
116,neijiang,29.5835,105.0622,17.31,89,100,3.12,CN,2023-04-01 23:20:50
117,arkhara,49.4212,130.0842,8.28,41,100,5.37,RU,2023-04-01 23:20:50
118,cherskiy,68.75,161.3,-26.48,97,100,1.86,RU,2023-04-01 23:20:52
119,bethel,41.3712,-73.414,17.93,71,23,3.58,US,2023-04-01 23:20:52
120,jawa,31.8525,35.9393,6.17,93,0,0.0,JO,2023-04-01 23:20:53
121,nanortalik,60.1432,-45.2371,-3.6,84,15,2.27,GL,2023-04-01 23:20:53
122,klaksvik,62.2266,-6.589,6.51,86,99,5.51,FO,2023-04-01 23:20:54
123,puerto ayora,-0.7393,-90.3518,28.08,89,93,2.68,EC,2023-04-01 23:20:54
124,pauini,-7.7136,-66.9764,22.82,97,81,0.75,BR,2023-04-01 23:20:55
125,arroio grande,-32.2375,-53.0869,16.11,68,1,2.58,BR,2023-04-01 23:20:55
126,meadow lake,34.8014,-106.5436,19.88,12,5,3.51,US,2023-04-01 23:20:56
127,hithadhoo,-0.6,73.0833,27.66,71,93,2.62,MV,2023-04-01 23:20:57
128,taranagar,28.6709,75.0351,21.1,62,6,3.93,IN,2023-04-01 23:20:57
129,makakilo city,21.3469,-158.0858,26.18,66,0,6.17,US,2023-04-01 23:20:59
130,goderich,43.7501,-81.7165,1.62,74,100,7.72,CA,2023-04-01 23:19:33
131,gojo,34.35,135.7,13.42,64,85,1.64,JP,2023-04-01 23:21:00
132,ypsonas,34.6884,32.9574,16.47,72,100,1.03,CY,2023-04-01 23:21:00
133,lasa,46.6166,10.7002,7.49,91,100,1.77,IT,2023-04-01 23:21:01
134,brae,60.3964,-1.353,4.41,74,18,4.0,GB,2023-04-01 23:21:01
135,aswan,24.0934,32.907,17.61,22,0,1.54,EG,2023-04-01 23:21:02
136,bauska,56.4075,24.1906,1.07,92,100,6.32,LV,2023-04-01 23:21:03
137,jibuti,11.5,42.5,25.61,71,61,2.85,DJ,2023-04-01 23:21:03
138,nhulunbuy,-12.2333,136.7667,28.34,83,80,1.03,AU,2023-04-01 23:16:19
139,porto nacional,-10.7081,-48.4172,25.0,90,89,1.7,BR,2023-04-01 23:21:04
140,margate,51.3813,1.3862,7.39,89,100,4.92,GB,2023-04-01 23:20:35
141,klerksdorp,-26.8521,26.6667,18.53,57,58,3.17,ZA,2023-04-01 23:21:05
142,geraldton,-28.7667,114.6,16.23,94,75,1.54,AU,2023-04-01 23:17:41
143,general roca,-39.0333,-67.5833,19.79,25,90,1.09,AR,2023-04-01 23:21:06
144,ginda,30.6945,78.4932,8.23,80,100,1.15,IN,2023-04-01 23:21:07
145,aldergrove,49.058,-122.4709,10.09,55,75,9.77,CA,2023-04-01 23:21:08
146,talcahuano,-36.7167,-73.1167,17.82,77,0,6.69,CL,2023-04-01 23:21:09
147,constitucion,-35.3333,-72.4167,16.43,76,67,6.35,CL,2023-04-01 23:21:09
148,komsomolskiy,40.4272,71.7189,15.4,55,99,4.12,UZ,2023-04-01 23:21:10
149,lorengau,-2.0226,147.2712,28.49,73,89,2.17,PG,2023-04-01 23:21:11
150,muzhi,65.3667,64.6667,1.8,87,100,8.66,RU,2023-04-01 23:21:11
151,hamilton,39.1834,-84.5333,6.53,75,100,7.2,US,2023-04-01 23:15:54
152,zhezkazgan,47.8043,67.7144,0.04,37,0,8.25,KZ,2023-04-01 23:21:13
153,sao filipe,14.8961,-24.4956,26.63,50,0,1.8,CV,2023-04-01 23:21:01
154,cap malheureux,-19.9842,57.6142,24.7,79,4,0.89,MU,2023-04-01 23:21:14
155,chuy,-33.6971,-53.4616,15.73,73,13,2.87,UY,2023-04-01 23:21:14
156,lebu,-37.6167,-73.65,14.32,94,99,4.14,CL,2023-04-01 23:21:15
157,port hedland,-20.3167,118.5667,26.03,94,75,2.06,AU,2023-04-01 23:21:16
158,eydhafushi,5.1033,73.0708,27.79,70,32,4.11,MV,2023-04-01 23:21:17
159,bambous virieux,-20.3428,57.7575,25.14,88,40,1.54,MU,2023-04-01 23:21:17
160,marfino,55.7028,37.3822,6.2,93,100,4.0,RU,2023-04-01 23:21:18
161,umea,63.8284,20.2597,-2.04,69,59,3.6,SE,2023-04-01 23:21:19
162,kavaratti,10.5669,72.642,27.14,68,11,2.88,IN,2023-04-01 23:21:19
163,ossora,59.2353,163.0719,-2.82,91,75,0.64,RU,2023-04-01 23:21:20
164,launceston,-41.45,147.1667,10.64,87,90,2.57,AU,2023-04-01 23:21:18
165,saint-joseph,-21.3667,55.6167,23.59,83,28,4.45,RE,2023-04-01 23:21:21
166,zhigansk,66.7697,123.3711,-21.72,98,96,7.59,RU,2023-04-01 23:21:21
167,alofi,-19.0595,-169.9187,28.94,74,83,7.72,NU,2023-04-01 23:21:22
168,ewa beach,21.3156,-158.0072,26.97,66,0,6.17,US,2023-04-01 23:21:22
169,mezen,65.8522,44.24,-13.04,97,59,2.41,RU,2023-04-01 23:21:23
170,hofn,64.2539,-15.2082,3.67,65,0,3.82,IS,2023-04-01 23:21:17
171,the valley,18.217,-63.0578,25.92,78,75,4.63,AI,2023-04-01 23:21:24
172,bonfim,3.0833,-59.95,29.49,52,37,7.45,BR,2023-04-01 23:21:25
173,mangrol,21.1167,70.1167,23.58,79,45,3.98,IN,2023-04-01 23:21:25
174,praia da vitoria,38.7333,-27.0667,18.14,94,75,8.87,PT,2023-04-01 23:21:26
175,soyo,-6.1349,12.3689,26.73,80,97,2.35,AO,2023-04-01 23:21:27
176,porto san giorgio,43.1827,13.7934,13.33,60,85,2.7,IT,2023-04-01 23:21:28
177,arraial do cabo,-22.9661,-42.0278,24.59,88,1,4.99,BR,2023-04-01 23:21:28
178,cidreira,-30.1811,-50.2056,20.93,63,95,5.64,BR,2023-04-01 23:21:29
179,saint george,37.1041,-113.5841,20.24,24,0,2.68,US,2023-04-01 23:17:37
180,sanica,44.6142,16.6411,8.23,83,99,1.87,BA,2023-04-01 23:21:30
181,moree,-29.4667,149.85,20.2,49,0,2.64,AU,2023-04-01 23:21:31
182,el guayabito,14.8333,-86.0333,30.81,48,40,4.12,HN,2023-04-01 23:21:31
183,itarema,-2.9248,-39.9167,25.58,82,100,2.84,BR,2023-04-01 23:21:32
184,port alfred,-33.5906,26.891,19.54,89,41,0.89,ZA,2023-04-01 23:21:32
185,spirit river,55.7833,-118.8361,4.37,71,52,3.14,CA,2023-04-01 23:21:33
186,nouadhibou,20.931,-17.0347,26.99,36,0,9.77,MR,2023-04-01 23:21:33
187,tynda,55.1667,124.7167,-11.04,80,100,3.66,RU,2023-04-01 23:21:34
188,saint-pierre,-21.3393,55.4781,24.2,83,0,2.57,RE,2023-04-01 23:21:34
189,boyolangu,-8.1181,111.8935,23.4,87,100,0.37,ID,2023-04-01 23:21:35
190,mimongo,-1.6195,11.6068,20.18,99,100,1.1,GA,2023-04-01 23:21:36
191,lompoc,34.6391,-120.4579,20.94,68,0,11.62,US,2023-04-01 23:19:27
192,dikson,73.5069,80.5464,-16.42,100,100,1.41,RU,2023-04-01 23:21:37
193,north bend,43.4065,-124.2243,10.65,76,75,7.2,US,2023-04-01 23:21:37
194,saint-augustin,51.226,-58.6502,-1.49,87,75,3.0,CA,2023-04-01 23:20:57
195,mahebourg,-20.4081,57.7,25.16,88,40,1.54,MU,2023-04-01 23:19:19
196,chitral,35.8462,71.7858,6.99,61,61,2.92,PK,2023-04-01 23:21:40
197,rio gallegos,-51.6226,-69.2181,11.03,50,0,8.23,AR,2023-04-01 23:17:07
198,upernavik,72.7868,-56.1549,-29.74,99,44,4.02,GL,2023-04-01 23:20:57
199,becerril,9.7041,-73.2793,30.59,50,100,3.96,CO,2023-04-01 23:21:41
200,pandan,14.0453,124.1694,25.69,84,98,1.46,PH,2023-04-01 23:21:42
201,tilichiki,60.4667,166.1,-4.26,93,68,0.54,RU,2023-04-01 23:21:42
202,takoradi,4.8845,-1.7554,26.93,84,20,2.81,GH,2023-04-01 23:15:41
203,nador,35.174,-2.9287,21.04,52,0,7.2,MA,2023-04-01 23:21:44
204,taoudenni,22.6783,-3.9836,28.57,7,0,4.46,ML,2023-04-01 23:21:08
205,tinyahuarco,-10.75,-76.3,3.29,97,100,1.1,PE,2023-04-01 23:21:45
206,dillon,34.4166,-79.3712,24.19,60,56,8.27,US,2023-04-01 23:21:46
207,salalah,17.0151,54.0924,28.05,78,75,3.6,OM,2023-04-01 23:21:46
208,labuhan,-6.8844,112.2051,24.63,83,100,1.37,ID,2023-04-01 23:21:47
209,murray bridge,-35.1167,139.2667,13.96,60,0,2.0,AU,2023-04-01 23:21:47
210,neiafu,-18.65,-173.9833,29.38,70,20,2.57,TO,2023-04-01 23:21:48
211,san patricio,28.017,-97.5169,29.54,56,99,6.17,US,2023-04-01 23:21:49
212,esperance,-33.8667,121.9,17.95,85,100,5.38,AU,2023-04-01 23:21:49
213,san cristobal,7.7669,-72.225,19.1,97,100,1.18,VE,2023-04-01 23:21:50
214,saskylakh,71.9167,114.0833,-7.99,88,100,7.19,RU,2023-04-01 23:21:50
215,umarkot,25.3616,69.7362,23.15,61,0,5.79,PK,2023-04-01 23:21:51
216,vryburg,-26.9566,24.7284,21.07,53,84,5.57,ZA,2023-04-01 23:21:51
217,wanlaweyn,2.6185,44.8938,27.24,71,87,4.01,SO,2023-04-01 23:21:52
218,hit,33.6416,42.8251,13.82,37,2,2.91,IQ,2023-04-01 23:21:52
219,cobija,-11.0267,-68.7692,23.38,95,97,0.7,BO,2023-04-01 23:21:53
220,lakes entrance,-37.8811,147.981,15.65,60,9,1.87,AU,2023-04-01 23:21:54
221,te anau,-45.4167,167.7167,10.29,92,91,0.78,NZ,2023-04-01 23:21:54
222,hanmer springs,-42.5167,172.8167,18.88,45,73,3.67,NZ,2023-04-01 23:21:55
223,barga,44.0742,10.4808,12.0,94,83,2.48,IT,2023-04-01 23:21:55
224,saint-philippe,-21.3585,55.7679,23.77,83,45,5.09,RE,2023-04-01 23:21:56
225,kashi,39.4547,75.9797,13.56,15,96,5.0,CN,2023-04-01 23:21:56
226,lavrentiya,65.5833,-171.0,-4.21,86,100,3.44,RU,2023-04-01 23:21:57
227,ostrovnoy,68.0531,39.5131,-7.36,93,92,5.0,RU,2023-04-01 23:21:57
228,ponta do sol,32.6667,-17.1,18.4,52,0,2.64,PT,2023-04-01 23:21:58
229,bakchar,57.0186,82.0711,-5.93,86,100,3.24,RU,2023-04-01 23:21:59
230,tiksi,71.6872,128.8694,-15.99,80,97,11.84,RU,2023-04-01 23:21:59
231,berezeni,46.3761,28.1478,9.88,91,100,1.62,RO,2023-04-01 23:22:00
232,ribeira grande,38.5167,-28.7,17.1,94,81,11.18,PT,2023-04-01 23:22:00
233,sinnamary,5.3833,-52.95,24.96,82,89,4.86,GF,2023-04-01 23:22:01
234,qaqortoq,60.7167,-46.0333,-6.49,84,41,3.79,GL,2023-04-01 23:22:01
235,devgarh,25.5333,73.9,21.23,38,10,3.36,IN,2023-04-01 23:22:02
236,querfurt,51.3833,11.6,8.04,96,100,6.25,DE,2023-04-01 23:22:03
237,port blair,11.6667,92.75,24.02,88,40,0.0,IN,2023-04-01 23:22:03
238,seoul,37.5683,126.9778,14.76,51,0,1.54,KR,2023-04-01 23:16:41
239,kumylzhenskaya,49.8809,42.5898,5.09,73,63,1.36,RU,2023-04-01 23:22:04
240,souillac,-20.5167,57.5167,25.21,88,40,1.54,MU,2023-04-01 23:22:05
241,vestmannaeyjar,63.4427,-20.2734,5.75,60,100,9.51,IS,2023-04-01 23:22:05
242,farrukhnagar,17.0778,78.2011,21.84,60,10,2.69,IN,2023-04-01 23:22:06
243,coihaique,-45.5752,-72.0662,10.97,54,40,3.09,CL,2023-04-01 23:22:07
244,severomuysk,56.1481,113.4267,-24.49,97,52,1.79,RU,2023-04-01 23:22:07
245,halifax,44.6453,-63.5724,7.05,95,100,8.75,CA,2023-04-01 23:17:52
246,siderno,38.2779,16.302,15.74,80,98,4.27,IT,2023-04-01 23:22:08
247,palmerston,-12.486,130.9833,28.99,79,40,2.06,AU,2023-04-01 23:22:09
248,namibe,-15.1961,12.1522,23.99,84,98,3.08,AO,2023-04-01 23:21:35
249,provideniya,64.3833,-173.3,-7.77,87,98,4.03,RU,2023-04-01 23:22:10
250,lugovoy,42.9472,72.7644,1.34,38,1,2.38,KZ,2023-04-01 23:22:11
251,basco,20.4487,121.9702,25.15,81,8,2.95,PH,2023-04-01 23:22:11
252,avarua,-21.2078,-159.775,28.03,78,75,4.12,CK,2023-04-01 23:20:56
253,van wert,40.8695,-84.5841,3.54,83,100,9.77,US,2023-04-01 23:22:12
254,opochka,56.7105,28.6617,1.01,98,100,4.34,RU,2023-04-01 23:22:13
255,shimoda,34.6667,138.95,14.2,80,97,7.68,JP,2023-04-01 23:22:14
256,pevek,69.7008,170.3133,-23.65,92,100,4.08,RU,2023-04-01 23:22:15
257,kaeo,-35.1,173.7833,20.74,96,100,1.38,NZ,2023-04-01 23:22:15
258,ballina,-28.8667,153.5667,20.43,71,17,3.4,AU,2023-04-01 23:22:16
259,glace bay,46.1969,-59.957,1.66,86,100,9.77,CA,2023-04-01 23:22:16
260,novopokrovskaya,45.9514,40.7006,6.09,65,2,3.05,RU,2023-04-01 23:22:17
261,palauig,15.435,119.9045,26.65,78,100,2.2,PH,2023-04-01 23:22:18
262,necochea,-38.5473,-58.7368,14.99,52,62,4.32,AR,2023-04-01 23:20:58
263,harper,4.375,-7.7169,26.38,88,18,2.53,LR,2023-04-01 23:21:18
264,umm lajj,25.0213,37.2685,20.79,47,0,4.73,SA,2023-04-01 23:22:19
265,blagoveshchenka,52.8333,79.8667,-5.49,58,9,3.11,RU,2023-04-01 23:22:20
266,santa cruz do sul,-29.7175,-52.4258,16.81,53,0,1.63,BR,2023-04-01 23:22:21
267,sur,22.5667,59.5289,26.03,61,4,4.31,OM,2023-04-01 23:22:21
268,tak,16.5833,98.8333,20.84,93,63,1.14,TH,2023-04-01 23:22:22
269,kibala,9.1104,18.3463,30.4,27,8,0.96,TD,2023-04-01 23:22:23
270,mwene-ditu,-7.0,23.45,18.12,97,58,1.05,CD,2023-04-01 23:22:24
271,corner brook,48.9667,-57.9484,2.09,83,100,4.82,CA,2023-04-01 23:22:25
272,lamar,33.6668,-95.5836,21.95,29,0,1.54,US,2023-04-01 23:22:25
273,lewistown,40.5992,-77.5714,11.2,82,40,8.23,US,2023-04-01 23:22:26
274,khilok,51.3674,110.4676,-10.22,89,100,2.35,RU,2023-04-01 23:22:26
275,oskarshamn,57.2645,16.4484,-0.57,79,5,6.53,SE,2023-04-01 23:22:27
276,khatanga,71.9667,102.5,-6.77,92,100,9.07,RU,2023-04-01 23:22:27
277,cuxhaven,53.8718,8.6909,1.65,86,40,7.2,DE,2023-04-01 23:22:28
278,jiujiang,29.7333,115.9833,16.91,78,0,2.57,CN,2023-04-01 23:22:29
279,amahai,-3.3333,128.9167,26.65,81,91,1.01,ID,2023-04-01 23:22:30
280,clyde river,70.4692,-68.5914,-25.87,76,0,3.6,CA,2023-04-01 23:22:31
281,pangnirtung,66.1451,-65.7125,-18.15,83,73,3.44,CA,2023-04-01 23:22:31
282,berbera,10.4396,45.0143,28.16,78,100,1.74,SO,2023-04-01 23:22:32
283,sumbe,-11.2061,13.8437,25.15,79,69,1.84,AO,2023-04-01 23:22:32
284,sisimiut,66.9395,-53.6735,-14.54,71,15,5.15,GL,2023-04-01 23:21:07
285,leningradskiy,69.3833,178.4167,-16.86,94,100,14.25,RU,2023-04-01 23:22:34
286,tanout,14.9709,8.8879,23.06,10,79,4.69,NE,2023-04-01 23:22:34
287,lucera,41.5082,15.3351,10.58,86,100,2.0,IT,2023-04-01 23:22:35
288,bako,5.7833,36.5667,17.13,81,22,1.92,ET,2023-04-01 23:22:35
289,altay,47.8667,88.1167,-9.79,51,99,4.11,CN,2023-04-01 23:22:36
290,caluquembe,-13.7833,14.6833,14.3,97,42,2.1,AO,2023-04-01 23:22:37
291,banff,51.1762,-115.5698,3.57,86,100,1.54,CA,2023-04-01 23:22:37
292,siuna,13.7332,-84.7773,30.25,38,74,4.48,NI,2023-04-01 23:22:38
293,aras,42.5617,-2.356,6.24,61,75,5.66,ES,2023-04-01 23:22:39
294,mao,39.8885,4.2658,10.31,93,75,8.75,ES,2023-04-01 23:20:57
295,colmenar viejo,40.6591,-3.7676,10.75,51,4,1.34,ES,2023-04-01 23:22:40
296,cockburn town,21.4612,-71.1419,24.98,69,40,4.63,TC,2023-04-01 23:22:40
297,deputatskiy,69.3,139.9,-26.19,95,52,1.88,RU,2023-04-01 23:22:41
298,cambridge,43.3601,-80.3127,3.63,83,100,9.26,CA,2023-04-01 23:22:24
299,nha trang,12.25,109.1833,24.0,83,42,1.83,VN,2023-04-01 23:22:42
300,acajutla,13.5928,-89.8275,29.3,56,96,3.5,SV,2023-04-01 23:22:08
301,ahipara,-35.1667,173.1667,20.05,79,100,1.01,NZ,2023-04-01 23:22:44
302,peleduy,59.6289,112.7406,-18.33,100,89,0.64,RU,2023-04-01 23:22:44
303,tigre,-34.426,-58.5796,18.47,75,6,2.72,AR,2023-04-01 23:22:45
304,yazd,31.8972,54.3675,11.06,13,0,4.12,IR,2023-04-01 23:22:45
305,hong gai,20.956,107.0946,22.95,98,84,1.82,VN,2023-04-01 23:22:46
306,formosa,-26.1775,-58.1781,24.99,49,0,3.6,AR,2023-04-01 23:21:01
307,demba,-5.51,22.2667,19.67,98,63,0.69,CD,2023-04-01 23:22:47
308,strezhevoy,60.7333,77.5889,-1.87,78,100,6.93,RU,2023-04-01 23:22:48
309,comodoro rivadavia,-45.8667,-67.5,18.92,24,0,7.2,AR,2023-04-01 23:22:49
310,oktyabrskiy,54.4815,53.471,3.18,85,100,1.28,RU,2023-04-01 23:22:49
311,kalmunai,7.4167,81.8167,24.55,88,15,2.46,LK,2023-04-01 23:22:50
312,cabo san lucas,22.8909,-109.9124,30.17,28,100,6.17,MX,2023-04-01 23:22:50
313,jalor,25.35,72.6167,23.59,47,50,3.57,IN,2023-04-01 23:22:51
314,cayenne,4.9333,-52.3333,25.02,83,75,1.54,GF,2023-04-01 23:22:52
315,ilulissat,69.2167,-51.1,-16.99,78,24,3.6,GL,2023-04-01 23:22:52
316,aykhal,66.0,111.5,-13.7,86,100,11.94,RU,2023-04-01 23:22:53
317,coquimbo,-29.9533,-71.3436,16.85,88,20,5.14,CL,2023-04-01 23:19:50
318,roebourne,-20.7833,117.1333,26.85,74,64,2.58,AU,2023-04-01 23:22:54
319,boa vista,2.8197,-60.6733,29.99,51,0,3.09,BR,2023-04-01 23:18:58
320,salamiyah,35.0113,37.0532,8.94,92,29,4.19,SY,2023-04-01 23:22:55
321,grand forks,47.9417,-97.4337,-1.04,59,40,6.69,US,2023-04-01 23:18:49
322,portland,45.5234,-122.6762,10.99,72,75,10.8,US,2023-04-01 23:17:06
323,orotukan,62.2667,151.7,-12.44,92,100,2.08,RU,2023-04-01 23:22:57
324,luderitz,-26.6481,15.1594,16.15,90,16,3.08,NA,2023-04-01 23:21:34
325,hailar,49.2,119.7,2.6,74,5,1.78,CN,2023-04-01 23:22:58
326,pishin,30.5803,66.9961,14.46,53,14,1.27,PK,2023-04-01 23:22:58
327,cedar lake,41.3648,-87.4411,3.9,71,95,6.44,US,2023-04-01 23:22:59
328,zhuzhou,27.8333,113.15,18.07,83,46,3.1,CN,2023-04-01 23:22:59
329,rosetown,51.5501,-108.0014,-2.97,80,100,2.57,CA,2023-04-01 23:23:00
330,buckeye,33.3703,-112.5838,27.61,12,0,2.57,US,2023-04-01 23:20:43
331,college,64.8569,-147.8028,-1.34,50,75,5.14,US,2023-04-01 23:20:16
332,kaitangata,-46.2817,169.8464,12.18,90,87,4.79,NZ,2023-04-01 23:23:01
333,cairns,-16.9167,145.7667,30.06,74,73,1.54,AU,2023-04-01 23:23:02
334,anloga,5.7947,0.8973,27.9,80,95,5.43,GH,2023-04-01 23:23:03
335,neftcala,39.3742,49.2472,8.19,80,100,3.31,AZ,2023-04-01 23:23:03
336,ketchikan,55.3422,-131.6461,6.26,61,75,5.14,US,2023-04-01 23:23:04
337,candolim,15.5181,73.7626,23.18,71,93,4.27,IN,2023-04-01 23:23:04
338,palasa,18.7667,84.4167,24.93,87,53,2.95,IN,2023-04-01 23:23:06
339,kandrian,-6.2167,149.55,27.04,81,100,1.95,PG,2023-04-01 23:23:06
340,chapais,49.7834,-74.8492,-4.12,87,100,7.26,CA,2023-04-01 23:23:07
341,itoman,26.1247,127.6694,22.21,88,40,10.29,JP,2023-04-01 23:23:08
342,baruun-urt,46.6806,113.2792,-2.23,47,100,9.35,MN,2023-04-01 23:23:09
343,villa bruzual,9.3328,-69.1208,27.9,61,100,1.86,VE,2023-04-01 23:23:09
344,bay roberts,47.5999,-53.2648,1.86,66,75,1.34,CA,2023-04-01 23:23:10
345,monte alegre,-2.0078,-54.0692,23.74,94,80,2.02,BR,2023-04-01 23:16:33
346,la ciotat,43.1748,5.6045,11.93,68,76,13.36,FR,2023-04-01 23:23:12
347,trat,12.5,102.5,24.36,94,59,0.25,TH,2023-04-01 23:23:13
348,port-gentil,-0.7193,8.7815,25.98,94,20,0.51,GA,2023-04-01 23:23:13
349,puerto escondido,15.85,-97.0667,30.46,70,40,4.12,MX,2023-04-01 23:23:14
350,ambon,-3.6954,128.1814,27.08,89,20,1.54,ID,2023-04-01 23:23:14
351,port lincoln,-34.7333,135.8667,15.69,62,46,5.52,AU,2023-04-01 23:23:15
352,whitehorse,60.7161,-135.0538,1.17,65,75,5.66,CA,2023-04-01 23:23:16
353,asosa,10.0667,34.5333,20.0,28,93,1.6,ET,2023-04-01 23:23:16
354,zharkent,44.1628,80.0,4.0,32,0,0.79,KZ,2023-04-01 23:23:17
355,leczyca,52.0596,19.1997,5.44,95,100,4.53,PL,2023-04-01 23:23:18
356,mosquera,4.7059,-74.2302,15.05,88,75,4.12,CO,2023-04-01 23:21:18
357,vardo,70.3705,31.1107,-3.01,86,100,12.35,NO,2023-04-01 23:23:19
358,gbadolite,4.2833,21.0167,23.51,71,81,1.64,CD,2023-04-01 23:23:20
359,ayan,56.45,138.1667,-3.12,88,99,0.98,RU,2023-04-01 23:23:20
360,meshchovsk,54.3244,35.2808,4.59,93,100,5.4,RU,2023-04-01 23:23:21
361,kalabo,-14.97,22.6814,18.32,94,84,2.01,ZM,2023-04-01 23:23:22
362,llangefni,53.2556,-4.3106,8.92,84,100,1.54,GB,2023-04-01 23:23:22
363,husavik,66.0449,-17.3389,-0.2,77,2,7.01,IS,2023-04-01 23:23:23
364,sapatgram,26.3334,90.109,18.87,90,89,1.71,IN,2023-04-01 23:23:23
365,nago,26.5881,127.9761,22.24,77,82,8.74,JP,2023-04-01 23:23:24
366,mangaratiba,-22.9597,-44.0406,25.48,88,10,3.2,BR,2023-04-01 23:23:26
367,aurillac,44.9167,2.45,4.49,93,100,4.63,FR,2023-04-01 23:23:26
368,tiarei,-17.5333,-149.3333,32.01,75,7,5.48,PF,2023-04-01 23:23:27
369,tigil,57.8,158.6667,-0.39,93,71,3.76,RU,2023-04-01 23:23:27
370,trincomalee,8.5711,81.2335,25.81,86,3,4.31,LK,2023-04-01 23:23:28
371,tsaratanana,-16.7833,47.65,22.17,90,89,3.03,MG,2023-04-01 23:23:29
372,dudinka,69.4058,86.1778,-6.32,95,100,10.85,RU,2023-04-01 23:23:29
373,bowen,-20.0167,148.2333,27.74,73,99,2.32,AU,2023-04-01 23:23:30
374,rancho palos verdes,33.7445,-118.387,23.38,66,0,6.17,US,2023-04-01 23:21:34
375,sorong,-0.8833,131.25,26.18,86,100,2.98,ID,2023-04-01 23:23:32
376,iglesias,39.3114,8.535,9.85,89,9,2.79,IT,2023-04-01 23:23:32
377,uvira,-3.4067,29.1458,22.03,86,93,0.89,CD,2023-04-01 23:23:33
378,manbij,36.5281,37.9549,7.87,91,67,3.82,SY,2023-04-01 23:23:33
379,santiago,-33.4569,-70.6483,26.97,26,0,7.2,CL,2023-04-01 23:17:26
380,bengkulu,-3.8004,102.2655,23.04,88,97,1.92,ID,2023-04-01 23:23:34
381,praya,14.9215,-23.5087,24.3,25,0,5.66,CV,2023-04-01 23:23:35
382,linxia,35.6003,103.2064,2.5,86,100,1.59,CN,2023-04-01 23:23:35
383,nome,64.5011,-165.4064,-0.47,93,100,8.23,US,2023-04-01 23:13:50
384,igarka,67.4667,86.5833,-3.54,95,100,10.85,RU,2023-04-01 23:23:36
385,ducheng,23.2373,111.5317,20.03,97,100,1.4,CN,2023-04-01 23:23:37
386,torres,-29.3353,-49.7269,16.57,67,20,4.63,BR,2023-04-01 23:12:38
387,rincon,32.296,-81.2354,25.48,65,100,6.17,US,2023-04-01 23:23:38
388,solone,48.2081,34.8721,4.4,88,84,5.89,UA,2023-04-01 23:23:39
389,broome,42.2506,-75.833,11.5,69,75,3.6,US,2023-04-01 23:23:39
390,indramayu,-6.3264,108.32,25.73,82,99,1.19,ID,2023-04-01 23:23:40
391,sola,-13.8833,167.55,28.27,71,68,4.08,VU,2023-04-01 23:23:40
392,vizinga,61.0749,50.1031,1.33,93,100,2.82,RU,2023-04-01 23:23:41
393,merritt island,28.5392,-80.672,31.03,53,20,4.02,US,2023-04-01 23:23:42
394,hun,29.1268,15.9477,21.07,14,0,4.31,LY,2023-04-01 23:23:42
395,asau,46.4333,26.4,7.51,95,100,1.86,RO,2023-04-01 23:20:46
396,beni,0.5,29.4667,16.13,94,87,1.18,CD,2023-04-01 23:23:43
397,redlands,34.0556,-117.1825,23.39,32,0,5.14,US,2023-04-01 23:20:50
398,isangel,-19.55,169.2667,29.23,68,5,1.86,VU,2023-04-01 23:20:46
399,tommot,58.9564,126.2925,-14.95,87,99,2.7,RU,2023-04-01 23:23:45
400,scarborough,54.2797,-0.4044,5.76,93,100,0.89,GB,2023-04-01 23:20:37
401,quelimane,-17.8786,36.8883,23.31,83,100,2.08,MZ,2023-04-01 23:23:46
402,raudeberg,61.9875,5.1352,1.37,68,49,1.09,NO,2023-04-01 23:23:47
403,san quintin,30.4833,-115.95,15.45,72,0,8.58,MX,2023-04-01 23:23:47
404,mahina,-17.5065,-149.489,31.87,62,20,3.6,PF,2023-04-01 23:23:48
405,mukdahan,16.5833,104.5,25.47,64,4,1.4,TH,2023-04-01 23:23:49
406,whitianga,-36.8333,175.7,19.37,89,100,1.4,NZ,2023-04-01 23:23:49
407,meulaboh,4.1363,96.1285,24.72,88,100,1.6,ID,2023-04-01 23:23:50
408,rivadavia,-33.1905,-68.4608,20.84,40,85,2.23,AR,2023-04-01 23:23:50
409,nabire,-3.3667,135.4833,25.94,86,100,0.82,ID,2023-04-01 23:23:51
410,marawi,7.9986,124.2928,21.33,94,99,0.62,PH,2023-04-01 23:23:51
411,sorland,67.667,12.6934,1.92,56,17,3.98,NO,2023-04-01 23:23:52
412,mount gambier,-37.8333,140.7667,12.34,68,42,1.02,AU,2023-04-01 23:21:30
413,hengshui,37.7322,115.7011,12.18,62,25,2.63,CN,2023-04-01 23:23:53
414,pochutla,15.7432,-96.4661,29.9,53,59,3.48,MX,2023-04-01 23:23:54
415,kieta,-6.2167,155.6333,28.77,70,86,1.55,PG,2023-04-01 23:23:54
416,dzerzhinsk,56.2389,43.4631,4.9,80,100,2.0,RU,2023-04-01 23:23:55
417,hay river,60.8156,-115.7999,-8.01,73,100,2.06,CA,2023-04-01 23:23:56
418,mabaruma,8.2,-59.7833,23.77,84,63,2.04,GY,2023-04-01 23:23:56
419,shubarshi,48.5872,57.1869,7.64,32,10,8.34,KZ,2023-04-01 23:23:57
420,sala,34.0389,-6.8166,15.42,100,26,0.0,MA,2023-04-01 23:23:58
421,chor,25.5167,69.7667,23.46,60,0,5.76,PK,2023-04-01 23:23:59
422,avera,33.194,-82.5271,25.21,43,99,7.23,US,2023-04-01 23:24:00
423,najran,17.4924,44.1277,22.36,36,68,2.81,SA,2023-04-01 23:24:00
424,norman wells,65.282,-126.8329,-9.98,62,75,1.54,CA,2023-04-01 23:24:01
425,figeac,44.75,1.9167,6.21,98,100,3.99,FR,2023-04-01 23:24:01
426,fenoarivo,-18.933,47.4354,19.04,94,75,3.6,MG,2023-04-01 23:24:02
427,barcelona,41.3888,2.159,13.19,84,75,0.51,ES,2023-04-01 23:20:23
428,bitlis,38.5,42.25,-8.75,88,5,2.9,TR,2023-04-01 23:24:04
429,khandyga,62.6667,135.6,-17.83,92,98,2.2,RU,2023-04-01 23:24:05
430,faanui,-16.4833,-151.75,27.99,72,0,3.3,PF,2023-04-01 23:24:05
431,wagga wagga,-35.1167,147.3667,18.25,58,7,3.53,AU,2023-04-01 23:24:06
432,vila,42.0304,-8.1588,4.28,81,5,2.03,PT,2023-04-01 23:24:07
433,hirara,24.8,125.2833,21.15,73,40,7.2,JP,2023-04-01 23:24:07
434,inta,66.0317,60.1659,-0.05,98,100,6.05,RU,2023-04-01 23:24:08
435,prince george,53.9166,-122.753,7.92,39,40,5.14,CA,2023-04-01 23:24:09
436,ulundi,-28.3352,31.4162,19.1,97,99,0.52,ZA,2023-04-01 23:24:09
437,fort nelson,58.8053,-122.7002,-1.7,63,100,3.6,CA,2023-04-01 23:24:10
438,bairiki,1.3292,172.9752,29.0,79,75,3.09,KI,2023-04-01 23:24:11
439,andenes,69.3143,16.1194,-1.01,64,100,3.6,NO,2023-04-01 23:24:11
440,verkhoyansk,67.5447,133.385,-24.57,98,94,1.79,RU,2023-04-01 23:24:12
441,vanimo,-2.6741,141.3028,27.68,76,45,1.08,PG,2023-04-01 23:24:13
442,milkovo,54.7167,158.6167,1.2,69,4,0.4,RU,2023-04-01 23:24:13
443,idah,7.1065,6.7342,27.94,69,57,3.36,NG,2023-04-01 23:24:15
444,marystown,47.1666,-55.1483,2.7,100,100,0.89,CA,2023-04-01 23:24:15
445,vercelli,45.3231,8.4153,12.3,64,84,2.0,IT,2023-04-01 23:24:16
446,thinadhoo,0.5333,72.9333,27.45,76,97,1.91,MV,2023-04-01 23:24:17
447,codrington,-38.2667,141.9667,13.86,65,60,0.57,AU,2023-04-01 23:24:17
448,dongsheng,39.8161,109.9776,9.33,81,100,9.36,CN,2023-04-01 23:24:18
449,marzuq,14.4,46.4667,22.76,64,100,1.14,YE,2023-04-01 23:21:44
450,pueblo bello,8.2041,-76.526,27.28,86,98,2.22,CO,2023-04-01 23:24:19
451,honiara,-9.4333,159.95,28.69,74,98,0.63,SB,2023-04-01 23:24:20
452,cusuna,15.85,-85.2333,27.46,68,96,6.02,HN,2023-04-01 23:24:20
453,ambilobe,-13.2,49.05,22.74,95,92,1.49,MG,2023-04-01 23:24:21
454,aguada de pasajeros,22.385,-80.8508,28.74,47,20,1.58,CU,2023-04-01 23:24:22
455,huilong,31.8111,121.655,13.29,76,0,2.68,CN,2023-04-01 23:24:23
456,renqiu,38.6989,116.0936,12.94,63,9,2.57,CN,2023-04-01 23:24:24
457,sibu,2.3,111.8167,24.17,94,40,1.54,MY,2023-04-01 23:21:27
458,taree,-31.9,152.4667,19.56,78,95,2.01,AU,2023-04-01 23:24:25
459,flinders,-34.5833,150.8552,16.25,91,97,3.14,AU,2023-04-01 23:24:26
460,quesnel,52.9999,-122.5029,6.28,36,75,3.6,CA,2023-04-01 23:24:26
461,rocha,-34.4833,-54.3333,13.56,79,11,1.41,UY,2023-04-01 23:24:27
462,antsohihy,-14.8796,47.9875,23.66,93,100,0.6,MG,2023-04-01 23:24:28
463,ucluelet,48.9329,-125.5528,8.38,76,34,1.34,CA,2023-04-01 23:24:28
464,mathbaria,22.2876,89.9593,22.92,87,46,2.1,BD,2023-04-01 23:24:29
465,mayor pablo lagerenza,-19.9309,-60.7718,28.84,53,68,2.09,PY,2023-04-01 23:24:30
466,zabol,32.25,67.25,10.75,61,26,0.79,AF,2023-04-01 23:24:30
467,sobolevo,54.4299,31.8996,7.14,92,100,5.83,RU,2023-04-01 23:24:31
468,conceicao do araguaia,-8.2578,-49.2647,23.42,92,81,1.55,BR,2023-04-01 23:24:32
469,savannah bight,16.45,-85.85,26.46,82,56,12.48,HN,2023-04-01 23:24:32
470,san carlos de bariloche,-41.1456,-71.3082,12.86,62,40,6.17,AR,2023-04-01 23:24:33
471,mogadishu,2.0371,45.3438,27.43,76,40,4.3,SO,2023-04-01 23:20:36
472,shingu,33.7333,135.9833,16.64,76,100,5.83,JP,2023-04-01 23:22:46
473,mayo,38.8876,-76.5119,21.99,49,75,6.69,US,2023-04-01 23:24:35
474,yeppoon,-23.1333,150.7333,20.88,85,100,5.88,AU,2023-04-01 23:21:22
475,healesville,-37.65,145.5167,14.01,58,19,0.71,AU,2023-04-01 23:24:36
476,saint-marc-des-carrieres,46.6834,-72.0491,2.04,100,100,1.54,CA,2023-04-01 23:24:37
477,rio grande,-32.035,-52.0986,18.06,65,14,5.63,BR,2023-04-01 23:24:38
478,wad rawah,15.1603,33.1397,23.85,10,83,5.36,SD,2023-04-01 23:24:40
479,vohibinany,-17.35,49.0333,21.62,99,92,1.04,MG,2023-04-01 23:24:40
480,farmington,36.7281,-108.2187,16.38,13,0,2.57,US,2023-04-01 23:21:58
481,kulu,39.0951,33.0799,8.4,69,82,6.1,TR,2023-04-01 23:24:42
482,new richmond,45.123,-92.5366,2.82,66,0,0.0,US,2023-04-01 23:24:42
483,waverley,-25.7023,28.2591,17.52,78,17,1.03,ZA,2023-04-01 23:24:43
484,ko samui,9.5357,99.9357,26.95,83,20,0.0,TH,2023-04-01 23:24:43
485,aklavik,68.2191,-135.0107,-13.0,56,20,0.0,CA,2023-04-01 23:24:44
486,cuauhtemoc,28.4167,-106.8667,22.63,10,96,9.47,MX,2023-04-01 23:20:31
487,westport,41.1415,-73.3579,17.37,77,0,8.23,US,2023-04-01 23:24:45
488,pine bluff,34.2284,-92.0032,22.96,26,0,5.14,US,2023-04-01 23:24:46
489,evensk,61.95,159.2333,-5.08,93,100,2.79,RU,2023-04-01 23:24:46
490,zaysan,47.4667,84.8667,-6.04,49,9,2.52,KZ,2023-04-01 23:24:47
491,loiza,18.4313,-65.8802,26.0,74,20,5.66,PR,2023-04-01 23:24:48
492,baryshivka,50.361,31.3217,8.55,88,100,5.45,UA,2023-04-01 23:24:49
493,sosnovo-ozerskoye,52.5249,111.5418,-8.58,33,100,4.99,RU,2023-04-01 23:24:49
494,ca mau,9.1769,105.15,24.34,85,91,0.86,VN,2023-04-01 23:21:32
495,kropotkin,45.4375,40.5756,5.21,66,0,3.02,RU,2023-04-01 23:24:50
496,llanes,43.4198,-4.7549,9.65,80,29,7.9,ES,2023-04-01 23:24:51
497,dhidhdhoo,6.8833,73.1,28.28,61,27,2.52,MV,2023-04-01 23:24:52
498,mancheral,18.8667,79.4333,25.87,67,43,1.76,IN,2023-04-01 23:24:52
499,neryungri,56.6709,124.6491,-15.41,88,100,4.52,RU,2023-04-01 23:24:53
500,batticaloa,7.7102,81.6924,24.74,87,5,3.03,LK,2023-04-01 23:24:54
501,saldanha,-33.0117,17.9442,16.03,90,0,4.37,ZA,2023-04-01 23:24:55
502,ubatuba,-23.4339,-45.0711,23.87,90,26,2.87,BR,2023-04-01 23:24:11
503,sao gabriel,-30.3364,-54.32,17.1,54,0,3.11,BR,2023-04-01 23:24:56
504,sibolga,1.7427,98.7792,23.47,94,100,2.45,ID,2023-04-01 23:24:56
505,cape coast,5.1053,-1.2466,27.08,84,12,3.22,GH,2023-04-01 23:16:36
506,xinyang,32.1228,114.0656,15.5,73,0,2.48,CN,2023-04-01 23:24:57
507,warrington,53.3925,-2.5802,9.06,82,75,3.09,GB,2023-04-01 23:24:58
508,urusha,54.05,122.9,-8.1,67,100,3.57,RU,2023-04-01 23:24:59
509,nemuro,43.3236,145.575,0.86,77,29,7.49,JP,2023-04-01 23:24:59
510,naze,28.3667,129.4833,19.51,79,38,8.05,JP,2023-04-01 23:25:00
511,sambava,-14.2667,50.1667,24.73,87,89,2.9,MG,2023-04-01 23:21:03
512,srednekolymsk,67.45,153.6833,-21.92,92,100,4.3,RU,2023-04-01 23:21:40
513,olga,43.7444,135.2892,4.27,63,2,0.23,RU,2023-04-01 23:25:02
514,biak,-0.9131,122.8766,25.24,75,100,0.4,ID,2023-04-01 23:25:02
515,ipixuna,-1.7625,-48.8043,22.78,98,100,1.38,BR,2023-04-01 23:25:03
516,ringebu,61.5167,10.1667,-9.42,85,53,1.33,NO,2023-04-01 23:25:04
517,yumen,40.2833,97.2,-2.75,28,18,7.18,CN,2023-04-01 23:25:05
518,cradock,-32.1642,25.6192,16.51,57,1,0.9,ZA,2023-04-01 23:25:05
519,tiznit,29.5833,-9.5,22.06,26,0,1.0,MA,2023-04-01 23:25:06
520,sinait,17.8664,120.4583,23.97,77,7,1.36,PH,2023-04-01 23:25:07
521,otofuke,42.9917,143.2003,3.53,69,8,1.25,JP,2023-04-01 23:25:08
522,mehamn,71.0357,27.8492,-3.03,68,75,11.83,NO,2023-04-01 23:25:08
523,mahibadhoo,3.7833,72.9667,27.87,73,13,4.03,MV,2023-04-01 23:25:09
524,traverse city,44.7631,-85.6206,1.11,66,100,3.13,US,2023-04-01 23:25:10
525,snyder,32.7179,-100.9176,24.49,9,0,4.12,US,2023-04-01 23:25:10
526,auki,-8.7676,160.7034,28.3,75,100,0.41,SB,2023-04-01 23:21:43
527,harer,9.3094,42.1258,16.25,84,98,0.25,ET,2023-04-01 23:20:38
528,luau,-10.7073,22.2247,17.81,98,96,1.08,AO,2023-04-01 23:25:13
529,cap-aux-meules,47.3821,-61.8597,0.03,100,100,11.32,CA,2023-04-01 23:25:13
530,bubaque,11.2833,-15.8333,25.42,75,1,8.17,GW,2023-04-01 23:25:14
531,san lorenzo,-25.3333,-57.5333,26.52,74,0,3.13,PY,2023-04-01 23:25:15
532,mackay,-21.15,149.2,25.38,89,58,5.14,AU,2023-04-01 23:25:15
533,panjakent,39.4952,67.6093,13.67,59,83,2.09,TJ,2023-04-01 23:25:16
534,san alberto,7.7611,-73.3922,28.41,73,93,0.94,CO,2023-04-01 23:25:17
535,saint-paul,-21.0096,55.2707,26.05,94,47,0.45,RE,2023-04-01 23:21:55
536,donskoye,45.4552,41.9741,5.07,63,97,2.98,RU,2023-04-01 23:25:18
537,bandar-e anzali,37.4727,49.4622,6.06,87,75,2.1,IR,2023-04-01 23:25:19
538,mount isa,-20.7333,139.5,25.87,29,95,4.12,AU,2023-04-01 23:25:20
539,acapulco,16.8634,-99.8901,29.9,62,0,5.14,MX,2023-04-01 23:21:27
540,gemena,3.25,19.7667,22.53,77,26,1.28,CD,2023-04-01 23:25:21
541,chutove,49.7104,35.1603,5.11,85,99,4.75,UA,2023-04-01 23:25:21
542,caborca,30.5838,-111.101,25.55,8,0,7.08,MX,2023-04-01 23:25:22
543,tete,-16.1564,33.5867,23.05,88,75,0.0,MZ,2023-04-01 23:25:23
544,maniitsoq,65.4167,-52.9,-6.94,56,64,3.46,GL,2023-04-01 23:25:23
545,russell,32.3502,-85.1999,27.6,39,94,4.66,US,2023-04-01 23:25:24
546,bitung,1.4451,125.1824,23.47,86,100,3.37,ID,2023-04-01 23:25:24
547,mananjary,-21.2167,48.3333,24.38,88,98,1.42,MG,2023-04-01 23:25:25
548,havelock,34.8791,-76.9013,22.21,88,0,12.35,US,2023-04-01 23:25:25
549,palaikastron,35.2,26.25,15.78,68,70,2.9,GR,2023-04-01 23:25:26
550,camalu,30.85,-116.0667,15.7,69,0,8.03,MX,2023-04-01 23:25:27
551,abbeville,50.1,1.8333,8.47,93,100,6.19,FR,2023-04-01 23:25:27
552,panyutyne,48.9333,36.2833,5.27,73,96,5.23,UA,2023-04-01 23:25:28
553,tutin,42.9903,20.3314,3.84,95,69,1.92,RS,2023-04-01 23:25:28
554,ciudad bolivar,8.1222,-63.5497,29.51,53,88,6.17,VE,2023-04-01 23:25:29
555,tahta,26.7693,31.5021,16.37,34,0,3.45,EG,2023-04-01 23:25:29
556,adrar,20.5022,-10.0711,25.68,7,0,4.48,MR,2023-04-01 23:25:30
